[
    {
        "stsId": 1,
        "stsName": "Petronas AL_3amarat",
        "password": "petro1231",
        "address": "Sudan-Khartoum-AL_3amarat st-15",
        "vec_Q": 20,
        "lon": 32.545672,
        "lat": 15.57963,
        "benzinQ": 85,
        "gasQ": 13,
        "verified": true,
        "services": [
            {
                "servId": 1,
                "servName": "cleaning1",
                "description": "clean the car",
                "price": 200
            }
        ],
        "active": true
    },
    {
        "stsId": 2,
        "stsName": "Petronas AL_Laamap",
        "password": "petro1231",
        "address": "Sudan-Khartoum-AL_Laamap",
        "vec_Q": 0,
        "lon": 32.502362,
        "lat": 15.552789,
        "benzinQ": 0,
        "gasQ": 0,
        "verified": true,
        "services": [],
        "active": false
    },
    {
        "stsId": 3,
        "stsName": "Oil Energy Taha Ama7i",
        "password": "oil1232",
        "address": "Khartoum-60 st-Elshargi",
        "vec_Q": 20,
        "lon": 32.50821,
        "lat": 15.524828,
        "benzinQ": 69,
        "gasQ": 0,
        "verified": true,
        "services": [],
        "active": true
    },
    {
        "stsId": 4,
        "stsName": "Oil Energy Araby",
        "password": "oil1232",
        "address": "Sudan-Khartoum-60",
        "vec_Q": 3,
        "lon": 32.540752,
        "lat": 15.565582,
        "benzinQ": 85,
        "gasQ": 13,
        "verified": true,
        "services": [],
        "active": true
    },
    {
        "stsId": 5,
        "stsName": "Al_Nahlah AL_Matar",
        "password": "nahla1232",
        "address": "Khartoum-st-Al_matar-no-59",
        "vec_Q": 10,
        "lon": 32.55211,
        "lat": 15.565108,
        "benzinQ": 23,
        "gasQ": 13,
        "verified": true,
        "services": [],
        "active": true
    },
    {
        "stsId": 6,
        "stsName": "AL_Nahlah M.Najeeb",
        "password": "nahla1232",
        "address": "Sudan-Khartoum-st-M.Najeeb",
        "vec_Q": 5,
        "lon": 32.546981,
        "lat": 15.544618,
        "benzinQ": 0,
        "gasQ": 56,
        "verified": true,
        "services": [],
        "active": true
    },
    {
        "stsId": 7,
        "stsName": "AL_Nahlah Al_Ghaba",
        "password": "nahla1232",
        "address": "Sudan-Khartoum-st-Al_Ghaba",
        "vec_Q": 0,
        "lon": 32.546981,
        "lat": 15.544618,
        "benzinQ": 0,
        "gasQ": 0,
        "verified": true,
        "services": [],
        "active": false
    },
    {
        "stsId": 8,
        "stsName": "Nile Petrol",
        "password": "nile1232",
        "address": "Khartoum-st-Al_3marat-no-15",
        "vec_Q": 10,
        "lon": 32.542106,
        "lat": 15.579273,
        "benzinQ": 85,
        "gasQ": 100,
        "verified": true,
        "services": [
            {
                "servId": 2,
                "servName": "cleaning2",
                "description": "clean the car",
                "price": 300
            }
        ],
        "active": true
    },
    {
        "stsId": 9,
        "stsName": "Nile Petrol",
        "password": "nile1232",
        "address": "Sudan-Khartoum-alnouzha",
        "vec_Q": 20,
        "lon": 32.538275,
        "lat": 15.551067,
        "benzinQ": 69,
        "gasQ": 0,
        "verified": true,
        "services": [],
        "active": true
    },
    {
        "stsId": 10,
        "stsName": "Nile Petrol",
        "password": "nile1232",
        "address": "Sudan-Khartoum-Ebied-khatim-st",
        "vec_Q": 20,
        "lon": 32.562243,
        "lat": 15.567579,
        "benzinQ": 69,
        "gasQ": 0,
        "verified": true,
        "services": [],
        "active": true
    },
    {
        "stsId": 11,
        "stsName": "Bashiar Jabra",
        "password": "bash1232",
        "address": "Khartoum-Jabra",
        "vec_Q": 30,
        "lon": 32.536098,
        "lat": 15.52618,
        "benzinQ": 85,
        "gasQ": 13,
        "verified": true,
        "services": [],
        "active": true
    },
    {
        "stsId": 12,
        "stsName": "Bashiar Headquarters",
        "password": "bash1232",
        "address": "Khartoum-60 Al-Jamhoria",
        "vec_Q": 15,
        "lon": 32.536169,
        "lat": 15.526226,
        "benzinQ": 69,
        "gasQ": 0,
        "verified": true,
        "services": [],
        "active": true
    }
]